{"cities": {"Q85": {"degree": 35, "label": "Cairo", "lon": 31.239444444, "lat": 30.056111111, "pop": 9293612}, "Q60": {"degree": 31, "label": "New York City", "lon": -74.006015, "lat": 40.712728, "pop": 8398748}, "Q90": {"degree": 5, "label": "Paris", "lon": 2.351388888, "lat": 48.856944444, "pop": 2175601}, "Q174": {"degree": 45, "label": "S\u00e3o Paulo", "lon": -46.633947222, "lat": -23.550394444, "pop": 12325232}, "Q172": {"degree": 22, "label": "Toronto", "lon": -79.386666666, "lat": 43.670277777, "pop": 2731571}, "Q270": {"degree": 30, "label": "Warsaw", "lon": 21.033333333, "lat": 52.216666666, "pop": 1790658}, "Q406": {"degree": 19, "label": "Istanbul", "lon": 28.960277777, "lat": 41.01, "pop": 14657434}, "Q490": {"degree": 32, "label": "Milan", "lon": 9.19, "lat": 45.466944444, "pop": 1366180}, "Q649": {"degree": 15, "label": "Moscow", "lon": 37.617777777, "lat": 55.755833333, "pop": 12655050}, "Q87": {"degree": 9, "label": "Alexandria", "lon": 29.916666666, "lat": 31.2, "pop": 4870000}, "Q656": {"degree": 38, "label": "Saint Petersburg", "lon": 30.25, "lat": 59.91667, "pop": 5384342}, "Q914": {"degree": 4, "label": "Volgograd", "lon": 44.514722222, "lat": 48.708611111, "pop": 1015586}, "Q956": {"degree": 70, "label": "Beijing", "lon": 116.407526, "lat": 39.90403, "pop": 21710000}, "Q994": {"degree": 16, "label": "Tbilisi", "lon": 44.7925, "lat": 41.7225, "pop": 1118035}, "Q84": {"degree": 38, "label": "London", "lon": -0.1275, "lat": 51.507222222, "pop": 8908081}, "Q1156": {"degree": 12, "label": "Mumbai", "lon": 72.8773928, "lat": 19.0759899, "pop": 15414288}, "Q1297": {"degree": 14, "label": "Chicago", "lon": -87.627777777, "lat": 41.881944444, "pop": 2722389}, "Q1353": {"degree": 4, "label": "Delhi", "lon": 77.216666666, "lat": 28.666666666, "pop": 26495000}, "Q1362": {"degree": 13, "label": "Islamabad", "lon": 73.036944444, "lat": 33.698888888, "pop": 1014825}, "Q1486": {"degree": 56, "label": "Buenos Aires", "lon": -58.381944444, "lat": -34.599722222, "pop": 3063728}, "Q1489": {"degree": 61, "label": "Mexico City", "lon": -99.145555555, "lat": 19.419444444, "pop": 8918653}, "Q1490": {"degree": 8, "label": "Tokyo", "lon": 139.692222222, "lat": 35.689722222, "pop": 14049146}, "Q1491": {"degree": 28, "label": "La Paz", "lon": -68.1475, "lat": -16.494166666, "pop": 2867504}, "Q1492": {"degree": 37, "label": "Barcelona", "lon": 2.176944444, "lat": 41.3825, "pop": 1664182}, "Q1530": {"degree": 6, "label": "Baghdad", "lon": 44.416666666, "lat": 33.35, "pop": 6960000}, "Q1850": {"degree": 12, "label": "Phnom Penh", "lon": 104.921027777, "lat": 11.569583333, "pop": 2129371}, "Q1854": {"degree": 17, "label": "Ho Chi Minh City", "lon": 106.633333333, "lat": 10.816666666, "pop": 10380000}, "Q1865": {"degree": 4, "label": "Kuala Lumpur", "lon": 101.695277777, "lat": 3.147777777, "pop": 7590000}, "Q1874": {"degree": 4, "label": "Odessa", "lon": 30.73262, "lat": 46.47747, "pop": 1017699}, "Q1899": {"degree": 16, "label": "Kyiv", "lon": 30.523611111, "lat": 50.45, "pop": 2963199}, "Q1963": {"degree": 16, "label": "Khartoum", "lon": 32.52654, "lat": 15.60308, "pop": 5345000}, "Q2280": {"degree": 8, "label": "Minsk", "lon": 27.561837, "lat": 53.902246, "pop": 2009786}, "Q2841": {"degree": 10, "label": "Bogot\u00e1", "lon": -74.0705, "lat": 4.612638888, "pop": 7743955}, "Q2900": {"degree": 6, "label": "Quito", "lon": -78.5125, "lat": -0.22, "pop": 2011388}, "Q3561": {"degree": 25, "label": "Algiers", "lon": 3.058611111, "lat": 36.776388888, "pop": 3415811}, "Q3616": {"degree": 13, "label": "Tehran", "lon": 51.416666666, "lat": 35.7, "pop": 8693706}, "Q3630": {"degree": 34, "label": "Jakarta", "lon": 106.84513, "lat": -6.21462, "pop": 11100929}, "Q3766": {"degree": 22, "label": "Damascus", "lon": 36.291944444, "lat": 33.513055555, "pop": 1754000}, "Q3805": {"degree": 40, "label": "Amman", "lon": 35.933333333, "lat": 31.95, "pop": 4007526}, "Q5826": {"degree": 6, "label": "Xi'an", "lon": 108.9, "lat": 34.266666666, "pop": 5740000}, "Q7903": {"degree": 7, "label": "Casablanca", "lon": -7.62, "lat": 33.599166666, "pop": 4370000}, "Q8660": {"degree": 4, "label": "Karachi", "lon": 67.01, "lat": 24.86, "pop": 14910352}, "Q8673": {"degree": 14, "label": "Lagos", "lon": 3.4, "lat": 6.45, "pop": 14862000}, "Q8684": {"degree": 36, "label": "Seoul", "lon": 126.99, "lat": 37.56, "pop": 9668465}, "Q8686": {"degree": 59, "label": "Shanghai", "lon": 121.466666666, "lat": 31.166666666, "pop": 23390000}, "Q9248": {"degree": 3, "label": "Baku", "lon": 49.835183333, "lat": 40.366655555, "pop": 2181800}, "Q9361": {"degree": 3, "label": "Bishkek", "lon": 74.566666666, "lat": 42.866666666, "pop": 1053900}, "Q11725": {"degree": 27, "label": "Chongqing", "lon": 106.506944444, "lat": 29.55, "pop": 7739000}, "Q16555": {"degree": 8, "label": "Houston", "lon": -95.383055555, "lat": 29.762777777, "pop": 2195914}, "Q19660": {"degree": 6, "label": "Bucharest", "lon": 26.083333333, "lat": 44.4, "pop": 1883425}, "Q34647": {"degree": 16, "label": "Johannesburg", "lon": 28.041638888, "lat": -26.204361111, "pop": 4434827}, "Q34820": {"degree": 41, "label": "Santo Domingo", "lon": -69.893333333, "lat": 18.476388888, "pop": 2581827}, "Q42053": {"degree": 5, "label": "Isfahan", "lon": 51.6675, "lat": 32.644722222, "pop": 1961260}, "Q66568": {"degree": 2, "label": "Kanpur", "lon": 80.331111111, "lat": 26.4725, "pop": 2701324}, "Q159273": {"degree": 5, "label": "Arequipa", "lon": -71.536883333, "lat": -16.398763888, "pop": 1008290}, "Q374365": {"degree": 10, "label": "Jeddah", "lon": 39.172777777, "lat": 21.542777777, "pop": 3976000}, "Q7473516": {"degree": 1, "label": "Tokyo", "lon": 139.774444, "lat": 35.683889, "pop": 9272565}, "Q3881": {"degree": 2, "label": "Lusaka", "lon": 28.283333333, "lat": -15.416666666, "pop": 1742979}, "Q65": {"degree": 37, "label": "Los Angeles", "lon": -118.24368, "lat": 34.05223, "pop": 3976322}, "Q3897": {"degree": 5, "label": "Luanda", "lon": 13.234444444, "lat": -8.838333333, "pop": 2487444}, "Q3921": {"degree": 2, "label": "Harare", "lon": 31.052222222, "lat": -17.829166666, "pop": 2150000}, "Q1726": {"degree": 7, "label": "Munich", "lon": 11.575, "lat": 48.1375, "pop": 1471508}, "Q3889": {"degree": 11, "label": "Maputo", "lon": 32.576388888, "lat": -25.915277777, "pop": 1191613}, "Q2844": {"degree": 25, "label": "Bras\u00edlia", "lon": -47.882777777, "lat": -15.793888888, "pop": 3015268}, "Q3838": {"degree": 5, "label": "Kinshasa", "lon": 15.313888888, "lat": -4.331666666, "pop": 11855000}, "Q3640": {"degree": 13, "label": "Ankara", "lon": 32.85, "lat": 39.93, "pop": 5503985}, "Q3718": {"degree": 8, "label": "Dakar", "lon": -17.457222222, "lat": 14.731944444, "pop": 1146053}, "Q3844": {"degree": 4, "label": "Brazzaville", "lon": 15.283333333, "lat": -4.266666666, "pop": 1827000}, "Q3894": {"degree": 1, "label": "Kampala", "lon": 32.581111111, "lat": 0.313611111, "pop": 1659600}, "Q3859": {"degree": 1, "label": "Kigali", "lon": 30.060555555, "lat": -1.953611111, "pop": 1156663}, "Q8678": {"degree": 20, "label": "Rio de Janeiro", "lon": -43.196388888, "lat": -22.908333333, "pop": 6747815}, "Q30002": {"degree": 19, "label": "Chengdu", "lon": 104.063333333, "lat": 30.66, "pop": 11050000}, "Q373023": {"degree": 1, "label": "Weihai", "lon": 122.1, "lat": 37.5, "pop": 2804771}, "Q1055": {"degree": 7, "label": "Hamburg", "lon": 10.0, "lat": 53.55, "pop": 1841179}, "Q1335": {"degree": 25, "label": "Montevideo", "lon": -56.166666666, "lat": -34.866666666, "pop": 1319108}, "Q1515": {"degree": 6, "label": "Abidjan", "lon": -4.026666666, "lat": 5.336388888, "pop": 4980000}, "Q1563": {"degree": 8, "label": "Havana", "lon": -82.358888888, "lat": 23.136666666, "pop": 2141652}, "Q1781": {"degree": 10, "label": "Budapest", "lon": 19.040833333, "lat": 47.498333333, "pop": 1723836}, "Q1953": {"degree": 7, "label": "Yerevan", "lon": 44.514444444, "lat": 40.181388888, "pop": 1075800}, "Q2868": {"degree": 18, "label": "Lima", "lon": -77.033333333, "lat": -12.05, "pop": 9674755}, "Q2887": {"degree": 9, "label": "Santiago", "lon": -70.666666666, "lat": -33.45, "pop": 6257516}, "Q3703": {"degree": 7, "label": "Bamako", "lon": -7.992222222, "lat": 12.645833333, "pop": 2009109}, "Q35765": {"degree": 17, "label": "Osaka", "lon": 135.501944444, "lat": 34.693611111, "pop": 2751862}, "Q42780": {"degree": 9, "label": "Ningbo", "lon": 121.549166666, "lat": 29.875, "pop": 7639000}, "Q468557": {"degree": 3, "label": "Miami-Dade County", "lon": -80.193611, "lat": 25.774167, "pop": 2617176}, "Q1352": {"degree": 7, "label": "Chennai", "lon": 80.275, "lat": 13.0825, "pop": 10265000}, "Q1861": {"degree": 38, "label": "Bangkok", "lon": 100.516666666, "lat": 13.75, "pop": 5696409}, "Q3426": {"degree": 1, "label": "Voronezh", "lon": 39.210555555, "lat": 51.671666666, "pop": 1047549}, "Q3624": {"degree": 4, "label": "Addis Ababa", "lon": 38.736944444, "lat": 9.027222222, "pop": 3041002}, "Q64": {"degree": 13, "label": "Berlin", "lon": 13.383333333, "lat": 52.516666666, "pop": 3644826}, "Q340": {"degree": 11, "label": "Montreal", "lon": -73.561666666, "lat": 45.508888888, "pop": 1825208}, "Q472": {"degree": 8, "label": "Sofia", "lon": 23.321726, "lat": 42.697886, "pop": 1355142}, "Q612": {"degree": 44, "label": "Dubai", "lon": 55.309444444, "lat": 25.269722222, "pop": 2502715}, "Q1461": {"degree": 16, "label": "Manila", "lon": 120.983333333, "lat": 14.6, "pop": 1846513}, "Q1867": {"degree": 39, "label": "Taipei", "lon": 121.531944444, "lat": 25.047777777, "pop": 2684567}, "Q2807": {"degree": 45, "label": "Madrid", "lon": -3.691944444, "lat": 40.418888888, "pop": 3334730}, "Q11751": {"degree": 10, "label": "Nagoya", "lon": 136.933333333, "lat": 35.116666666, "pop": 2326844}, "Q16520": {"degree": 37, "label": "Busan", "lon": 129.040277777, "lat": 35.1, "pop": 3453198}, "Q16572": {"degree": 11, "label": "Guangzhou", "lon": 113.258976, "lat": 23.128795, "pop": 14043500}, "Q36947": {"degree": 2, "label": "Salvador", "lon": -38.510833333, "lat": -12.970833333, "pop": 2886698}, "Q37100": {"degree": 45, "label": "Auckland", "lon": 174.783333333, "lat": -36.85, "pop": 1346091}, "Q51103": {"degree": 19, "label": "Cali", "lon": -76.519722222, "lat": 3.44, "pop": 2471474}, "Q81788": {"degree": 2, "label": "Giza", "lon": 31.2118, "lat": 29.987, "pop": 5598402}, "Q124739": {"degree": 13, "label": "Tijuana", "lon": -117.037155, "lat": 32.536447, "pop": 1964788}, "Q1960": {"degree": 1, "label": "Dar es Salaam", "lon": 39.283333333, "lat": -6.8, "pop": 4715000}, "Q1085": {"degree": 7, "label": "Prague", "lon": 14.416666666, "lat": 50.083333333, "pop": 1335084}, "Q1361": {"degree": 2, "label": "Hyderabad", "lon": 78.474722222, "lat": 17.361666666, "pop": 9305000}, "Q1475": {"degree": 1, "label": "Quezon City", "lon": 121.033333333, "lat": 14.633333333, "pop": 2960048}, "Q1555": {"degree": 10, "label": "Guatemala City", "lon": -90.52525, "lat": 14.609861111, "pop": 2934841}, "Q3238": {"degree": 13, "label": "Tegucigalpa", "lon": -87.206666666, "lat": 14.094166666, "pop": 1126534}, "Q3274": {"degree": 10, "label": "Managua", "lon": -86.266666666, "lat": 12.15, "pop": 1028808}, "Q3748": {"degree": 2, "label": "Monrovia", "lon": -10.804722222, "lat": 6.310555555, "pop": 1021762}, "Q3777": {"degree": 1, "label": "Ouagadougou", "lon": -1.535277777, "lat": 12.357222222, "pop": 2453496}, "Q11746": {"degree": 2, "label": "Wuhan", "lon": 114.288055555, "lat": 30.587222222, "pop": 11895000}, "Q16556": {"degree": 4, "label": "Phoenix", "lon": -112.073888888, "lat": 33.448333333, "pop": 1626078}, "Q16557": {"degree": 5, "label": "Dallas", "lon": -96.808888888, "lat": 32.779166666, "pop": 1197816}, "Q20927": {"degree": 3, "label": "Daegu", "lon": 128.6, "lat": 35.866666666, "pop": 2461002}, "Q23430": {"degree": 12, "label": "Ulaanbaatar", "lon": 106.905515, "lat": 47.921357, "pop": 1396288}, "Q168652": {"degree": 1, "label": "Hargeisa", "lon": 44.060556, "lat": 9.565556, "pop": 1900000}, "Q220": {"degree": 4, "label": "Rome", "lon": 12.482777777, "lat": 41.893055555, "pop": 2872800}, "Q365": {"degree": 3, "label": "Cologne", "lon": 6.957777777, "lat": 50.942222222, "pop": 1087863}, "Q1520": {"degree": 8, "label": "Nur-Sultan", "lon": 71.433333333, "lat": 51.133333333, "pop": 1078362}, "Q1741": {"degree": 3, "label": "Vienna", "lon": 16.373064, "lat": 48.20833, "pop": 1911191}, "Q1761": {"degree": 4, "label": "Dublin", "lon": -6.260277777, "lat": 53.349722222, "pop": 1173179}, "Q1858": {"degree": 17, "label": "Hanoi", "lon": 105.84117, "lat": 21.0245, "pop": 8246600}, "Q3224": {"degree": 2, "label": "New South Wales", "lon": 147.0, "lat": -32.0, "pop": 7480228}, "Q3711": {"degree": 9, "label": "Belgrade", "lon": 20.466666666, "lat": 44.816666666, "pop": 1378682}, "Q3787": {"degree": 2, "label": "Abuja", "lon": 7.491388888, "lat": 9.055555555, "pop": 1235880}, "Q3861": {"degree": 5, "label": "Doha", "lon": 51.533333333, "lat": 25.3, "pop": 1186023}, "Q5756": {"degree": 1, "label": "Community of Madrid", "lon": -3.69063, "lat": 40.42526, "pop": 6779888}, "Q9022": {"degree": 22, "label": "Guadalajara", "lon": -103.3475, "lat": 20.676666666, "pop": 1460148}, "Q13917": {"degree": 3, "label": "\u00cele-de-France", "lon": 2.3176, "lat": 48.8522, "pop": 12213447}, "Q394701": {"degree": 1, "label": "Chaoyang District", "lon": 116.43737, "lat": 39.92038, "pop": 3922000}, "Q613": {"degree": 4, "label": "Emirate of Dubai", "lon": 55.311666666, "lat": 25.264444444, "pop": 3355900}, "Q16666": {"degree": 10, "label": "Nanjing", "lon": 118.766666666, "lat": 32.05, "pop": 6320000}, "Q1142": {"degree": 1, "label": "Alsace", "lon": 7.5, "lat": 48.5, "pop": 1868183}, "Q11462": {"degree": 2, "label": "Surabaya", "lon": 112.737777777, "lat": -7.245833333, "pop": 2970730}, "Q12543": {"degree": 1, "label": "Hauts-de-Seine", "lon": 2.2, "lat": 48.833333333, "pop": 1619120}, "Q20921": {"degree": 4, "label": "Daejeon", "lon": 127.385, "lat": 36.351, "pop": 1475221}, "Q26600": {"degree": 13, "label": "Fukuoka", "lon": 130.416666666, "lat": 33.6, "pop": 1603043}, "Q62823": {"degree": 10, "label": "Barranquilla", "lon": -74.796388888, "lat": 10.963888888, "pop": 1274250}, "Q169376": {"degree": 2, "label": "Nagasaki Prefecture", "lon": 129.8, "lat": 32.966666666, "pop": 1305650}, "Q181557": {"degree": 10, "label": "Kaohsiung", "lon": 120.3, "lat": 22.616667, "pop": 2773533}, "Q199440": {"degree": 2, "label": "Mexicali", "lon": -115.467777777, "lat": 32.663333333, "pop": 1034224}, "Q588451": {"degree": 1, "label": "Jiulongpo District", "lon": 106.50731, "lat": 29.50477, "pop": 1084419}, "Q975": {"degree": 4, "label": "San Antonio", "lon": -98.493888888, "lat": 29.425, "pop": 1436697}, "Q1354": {"degree": 2, "label": "Dhaka", "lon": 90.394444444, "lat": 23.728888888, "pop": 16800000}, "Q1348": {"degree": 1, "label": "Kolkata", "lon": 88.3638815, "lat": 22.5726723, "pop": 4496694}, "Q1397": {"degree": 1, "label": "Ohio", "lon": -82.5, "lat": 40.5, "pop": 11613423}, "Q1458": {"degree": 2, "label": "Calabria", "lon": 16.5, "lat": 39.0, "pop": 1947131}, "Q1519": {"degree": 10, "label": "Abu Dhabi", "lon": 54.396944444, "lat": 24.451111111, "pop": 1483000}, "Q1355": {"degree": 5, "label": "Bengaluru", "lon": 77.5912997, "lat": 12.9791198, "pop": 11250000}, "Q3130": {"degree": 12, "label": "Sydney", "lon": 151.2, "lat": -33.866666666, "pop": 4840600}, "Q5783": {"degree": 1, "label": "Andalusia", "lon": -4.16, "lat": 37.46, "pop": 8476718}, "Q41278": {"degree": 6, "label": "Ulsan", "lon": 129.316666666, "lat": 35.55, "pop": 1166033}, "Q42308": {"degree": 4, "label": "Kharkiv", "lon": 36.229166666, "lat": 50.0, "pop": 1446107}, "Q225641": {"degree": 1, "label": "Mombasa", "lon": 39.666666666, "lat": -4.05, "pop": 1200000}, "Q68481": {"degree": 1, "label": "Fuzhou", "lon": 119.291666666, "lat": 26.076944444, "pop": 5245000}, "Q243327": {"degree": 2, "label": "Changwon", "lon": 128.681111111, "lat": 35.228055555, "pop": 1046054}, "Q147402": {"degree": 9, "label": "Zapopan", "lon": -103.391944444, "lat": 20.720277777, "pop": 1476491}, "Q3141": {"degree": 1, "label": "Melbourne", "lon": 144.961388888, "lat": -37.820555555, "pop": 4529500}, "Q18808": {"degree": 11, "label": "Pyongyang", "lon": 125.73, "lat": 39.03, "pop": 2863000}, "Q1533": {"degree": 26, "label": "Caracas", "lon": -66.933333333, "lat": 10.5, "pop": 1943901}, "Q11736": {"degree": 17, "label": "Tianjin", "lon": 117.205555555, "lat": 39.146666666, "pop": 13245000}, "Q133083": {"degree": 1, "label": "Gauteng", "lon": 28.0, "lat": -26.0, "pop": 15810388}, "Q269": {"degree": 10, "label": "Tashkent", "lon": 69.266666666, "lat": 41.3, "pop": 2424100}, "Q176": {"degree": 1, "label": "Quebec", "lon": -72.0, "lat": 52.0, "pop": 8164361}, "Q463": {"degree": 2, "label": "Rh\u00f4ne-Alpes", "lon": 4.819447222, "lat": 45.740186111, "pop": 6399927}, "Q8646": {"degree": 2, "label": "Hong Kong", "lon": 114.158611111, "lat": 22.278333333, "pop": 7500700}, "Q2256": {"degree": 9, "label": "Birmingham", "lon": -1.9025, "lat": 52.48, "pop": 1137100}, "Q3572": {"degree": 5, "label": "Tunis", "lon": 10.18, "lat": 36.800833333, "pop": 1056247}, "Q3579": {"degree": 12, "label": "Tripoli", "lon": 13.18746, "lat": 32.87519, "pop": 1126000}, "Q4361": {"degree": 5, "label": "Curitiba", "lon": -49.271944444, "lat": -25.429722222, "pop": 1879355}, "Q5972": {"degree": 2, "label": "Medan", "lon": 98.666666666, "lat": 3.666666666, "pop": 2524341}, "Q15174": {"degree": 4, "label": "Shenzhen", "lon": 114.054, "lat": 22.535, "pop": 11908400}, "Q10393": {"degree": 1, "label": "Bogor", "lon": 106.8, "lat": -6.6, "pop": 1030720}, "Q16552": {"degree": 4, "label": "San Diego", "lon": -117.1625, "lat": 32.715, "pop": 1394928}, "Q16553": {"degree": 3, "label": "San Jose", "lon": -121.872777777, "lat": 37.304166666, "pop": 1025350}, "Q334": {"degree": 1, "label": "Singapore", "lon": 103.8, "lat": 1.3, "pop": 5888926}, "Q34932": {"degree": 23, "label": "Brisbane", "lon": 153.027777777, "lat": -27.467777777, "pop": 2360241}, "Q887": {"degree": 1, "label": "Yekaterinburg", "lon": 60.612777777, "lat": 56.835555555, "pop": 1468833}, "Q891": {"degree": 1, "label": "Nizhny Novgorod", "lon": 44.0075, "lat": 56.326944444, "pop": 1264075}, "Q25282": {"degree": 1, "label": "Da Nang", "lon": 108.209722222, "lat": 16.069444444, "pop": 1230847}, "Q11025": {"degree": 2, "label": "Semarang", "lon": 110.416666666, "lat": -6.966666666, "pop": 1678358}, "Q11720": {"degree": 3, "label": "Shenyang", "lon": 123.425833333, "lat": 41.803888888, "pop": 7935000}, "Q43407": {"degree": 1, "label": "Shandong", "lon": 118.4, "lat": 36.4, "pop": 95793065}, "Q59227": {"degree": 1, "label": "Chaozhou", "lon": 116.63, "lat": 23.67, "pop": 2656600}, "Q80434": {"degree": 1, "label": "Aichi Prefecture", "lon": 136.906666666, "lat": 35.180166666, "pop": 7535266}, "Q122723": {"degree": 3, "label": "\u014csaka Prefecture", "lon": 135.52, "lat": 34.686388888, "pop": 8806371}, "Q123258": {"degree": 2, "label": "Fukuoka Prefecture", "lon": 130.583333333, "lat": 33.6, "pop": 5108038}, "Q34664": {"degree": 5, "label": "Hiroshima", "lon": 132.45, "lat": 34.4, "pop": 1198021}, "Q35178": {"degree": 12, "label": "Kuwait City", "lon": 47.98, "lat": 29.375, "pop": 2989000}, "Q38545": {"degree": 9, "label": "Adana", "lon": 35.325, "lat": 37.0, "pop": 2220125}, "Q37951": {"degree": 8, "label": "Sapporo", "lon": 141.354388888, "lat": 43.062083333, "pop": 1961690}, "Q883": {"degree": 1, "label": "Novosibirsk", "lon": 82.916666666, "lat": 55.033333333, "pop": 1602915}, "Q1408": {"degree": 1, "label": "New Jersey", "lon": -74.5, "lat": 40.0, "pop": 8958013}, "Q485496": {"degree": 5, "label": "Shymkent", "lon": 69.6, "lat": 42.3, "pop": 1028673}, "Q35997": {"degree": 4, "label": "\u0130zmir", "lon": 27.13838, "lat": 38.41273, "pop": 4320519}, "Q40236": {"degree": 1, "label": "Manaus", "lon": -60.016666666, "lat": -3.1, "pop": 1802014}, "Q47916": {"degree": 1, "label": "Lucknow", "lon": 80.947, "lat": 26.847, "pop": 3382000}, "Q48320": {"degree": 11, "label": "K\u014dbe", "lon": 135.183, "lat": 34.6913, "pop": 1513193}, "Q52535": {"degree": 24, "label": "Rosario", "lon": -60.639444444, "lat": -32.9575, "pop": 1193605}, "Q93338": {"degree": 8, "label": "Gaziantep", "lon": 37.383333333, "lat": 37.066666666, "pop": 2028563}, "Q37995": {"degree": 1, "label": "Yangon", "lon": 96.16, "lat": 16.795, "pop": 5430000}, "Q189823": {"degree": 2, "label": "Haikou", "lon": 110.32, "lat": 20.02, "pop": 1776141}, "Q233588": {"degree": 4, "label": "Chiang Mai", "lon": 98.970561111, "lat": 18.837219444, "pop": 1735762}, "Q532981": {"degree": 1, "label": "Baiyin", "lon": 104.1766, "lat": 36.5448, "pop": 1799000}, "Q35493": {"degree": 10, "label": "Almaty", "lon": 76.9, "lat": 43.25, "pop": 1916822}, "Q245023": {"degree": 14, "label": "Taichung", "lon": 120.666666666, "lat": 24.15, "pop": 2803894}, "Q2449": {"degree": 1, "label": "Mogadishu", "lon": 45.3425, "lat": 2.040833333, "pop": 2120000}, "Q6487": {"degree": 10, "label": "Antalya", "lon": 30.69556, "lat": 36.90812, "pop": 2426356}, "Q36312": {"degree": 4, "label": "Calgary", "lon": -114.0625, "lat": 51.0475, "pop": 1239220}, "Q66485": {"degree": 2, "label": "Jaipur", "lon": 75.866666666, "lat": 26.916666666, "pop": 3073350}, "Q170322": {"degree": 3, "label": "Qingdao", "lon": 120.4, "lat": 36.116666666, "pop": 5775000}, "Q170688": {"degree": 8, "label": "Santa Cruz de la Sierra", "lon": -63.1975, "lat": -17.789166666, "pop": 3151676}, "Q171632": {"degree": 18, "label": "Maracaibo", "lon": -71.633333333, "lat": 10.633333333, "pop": 1551539}, "Q274584": {"degree": 2, "label": "San Pedro Sula", "lon": -88.033333333, "lat": 15.5, "pop": 1073824}, "Q304848": {"degree": 1, "label": "Daqing", "lon": 125.00798, "lat": 46.59791, "pop": 2904532}, "Q898": {"degree": 1, "label": "Omsk", "lon": 73.383333333, "lat": 54.966666666, "pop": 1178391}, "Q900": {"degree": 1, "label": "Kazan", "lon": 49.114444444, "lat": 55.790833333, "pop": 1243500}, "Q908": {"degree": 1, "label": "Rostov-on-Don", "lon": 39.716666666, "lat": 47.233333333, "pop": 1125299}, "Q1070": {"degree": 1, "label": "Ahmedabad", "lon": 72.58, "lat": 23.03, "pop": 7645000}, "Q26590": {"degree": 2, "label": "Ciudad Ju\u00e1rez", "lon": -106.486944444, "lat": 31.739444444, "pop": 1321004}, "Q38283": {"degree": 2, "label": "Yokohama", "lon": 139.633333333, "lat": 35.433333333, "pop": 3757630}, "Q40269": {"degree": 2, "label": "Porto Alegre", "lon": -51.23, "lat": -30.032777777, "pop": 1484941}, "Q48278": {"degree": 13, "label": "Medell\u00edn", "lon": -75.574827777, "lat": 6.244747222, "pop": 2529403}, "Q81033": {"degree": 18, "label": "Monterrey", "lon": -100.308611111, "lat": 25.671388888, "pop": 1135512}, "Q174461": {"degree": 1, "label": "Ranchi", "lon": 85.334722222, "lat": 23.355555555, "pop": 1073440}, "Q2471": {"degree": 7, "label": "Sanaa", "lon": 44.2, "lat": 15.35, "pop": 2957000}, "Q3586": {"degree": 1, "label": "East Java", "lon": 112.952777777, "lat": -7.939166666, "pop": 40665696}, "Q3688": {"degree": 8, "label": "Nouakchott", "lon": -15.9785, "lat": 18.08581, "pop": 1077169}, "Q5112": {"degree": 4, "label": "Adelaide", "lon": 138.6, "lat": -34.9275, "pop": 1295714}, "Q13160": {"degree": 1, "label": "Jalisco", "lon": -103.676388888, "lat": 20.566666666, "pop": 7844830}, "Q15340": {"degree": 1, "label": "Hyderabad district", "lon": 78.48976, "lat": 17.40164, "pop": 3943323}, "Q26586": {"degree": 1, "label": "Central Denmark Region", "lon": 9.5, "lat": 56.166666666, "pop": 1326913}, "Q36074": {"degree": 1, "label": "Queensland", "lon": 143.0, "lat": -20.0, "pop": 4703193}, "Q41157": {"degree": 1, "label": "North Jeolla Province", "lon": 127.15, "lat": 35.816666666, "pop": 1818157}, "Q41161": {"degree": 1, "label": "South Jeolla", "lon": 127.0, "lat": 34.75, "pop": 1790352}, "Q43509": {"degree": 10, "label": "Guayaquil", "lon": -79.8875, "lat": -2.19, "pop": 2723665}, "Q54180": {"degree": 1, "label": "Pomeranian Voivodeship", "lon": 18.0, "lat": 54.183333333, "pop": 2290070}, "Q74881": {"degree": 2, "label": "Dalian", "lon": 121.6, "lat": 38.9, "pop": 4480000}, "Q79857": {"degree": 8, "label": "Konya", "lon": 32.484722222, "lat": 37.871388888, "pop": 2232374}, "Q81725": {"degree": 1, "label": "KwaZulu-Natal", "lon": 31.0, "lat": -29.0, "pop": 11513575}, "Q92161": {"degree": 10, "label": "Changchun", "lon": 125.2, "lat": 43.9, "pop": 7674439}, "Q121157": {"degree": 2, "label": "Mashhad", "lon": 59.604166666, "lat": 36.306944444, "pop": 3001184}, "Q234200": {"degree": 1, "label": "Santiago de Cuba Province", "lon": -75.8139, "lat": 20.0198, "pop": 1047015}, "Q3761": {"degree": 3, "label": "Accra", "lon": -0.187, "lat": 5.6037, "pop": 2291352}, "Q3826": {"degree": 1, "label": "Muscat", "lon": 58.592222222, "lat": 23.613888888, "pop": 1421409}, "Q34600": {"degree": 7, "label": "Kyoto", "lon": 135.768055555, "lat": 35.011666666, "pop": 1464890}, "Q42956": {"degree": 3, "label": "Harbin", "lon": 126.633333333, "lat": 45.75, "pop": 5015000}, "Q48256": {"degree": 1, "label": "Dnipro", "lon": 34.983333333, "lat": 48.45, "pop": 1002111}, "Q1118": {"degree": 1, "label": "Flemish Brabant", "lon": 4.583333333, "lat": 50.916666666, "pop": 1138489}, "Q3183": {"degree": 1, "label": "Perth", "lon": 115.858888888, "lat": -31.952222222, "pop": 2039200}, "Q11739": {"degree": 8, "label": "Lahore", "lon": 74.343611111, "lat": 31.549722222, "pop": 11126285}, "Q48344": {"degree": 1, "label": "Recife", "lon": -34.880833333, "lat": -8.053888888, "pop": 1653461}, "Q80985": {"degree": 4, "label": "Fez", "lon": -5.003333333, "lat": 34.043333333, "pop": 1112072}, "Q42635": {"degree": 1, "label": "Wenzhou", "lon": 120.656075, "lat": 27.999128, "pop": 4310000}, "Q10389": {"degree": 1, "label": "Bandung", "lon": 107.566666666, "lat": -6.95, "pop": 2507888}, "Q20714": {"degree": 1, "label": "Suwon", "lon": 127.01, "lat": 37.285833333, "pop": 1234300}, "Q48195": {"degree": 1, "label": "Basra", "lon": 47.81, "lat": 30.488888888, "pop": 1326564}, "Q182059": {"degree": 6, "label": "Kumasi", "lon": -1.616666666, "lat": 6.683333333, "pop": 2069350}, "Q46747": {"degree": 7, "label": "Sendai", "lon": 140.869444444, "lat": 38.268333333, "pop": 1058070}, "Q41283": {"degree": 2, "label": "Gwangju", "lon": 126.916666666, "lat": 35.166666666, "pop": 1490092}, "Q140631": {"degree": 16, "label": "Tainan", "lon": 120.183333333, "lat": 22.983333333, "pop": 1883831}, "Q182852": {"degree": 2, "label": "Kunming", "lon": 102.706111111, "lat": 25.043333333, "pop": 6432212}, "Q40738": {"degree": 5, "label": "Bursa", "lon": 29.066666666, "lat": 40.183333333, "pop": 2901396}, "Q919": {"degree": 3, "label": "Krasnoyarsk", "lon": 92.866666666, "lat": 56.016666666, "pop": 1083865}, "Q74957": {"degree": 1, "label": "Anshan", "lon": 122.98945, "lat": 41.10662, "pop": 3645884}, "Q41183": {"degree": 2, "label": "Aleppo", "lon": 37.15, "lat": 36.2, "pop": 1916781}, "Q185453": {"degree": 4, "label": "Multan", "lon": 71.471111111, "lat": 30.197777777, "pop": 1871843}, "Q44210": {"degree": 3, "label": "C\u00f3rdoba", "lon": -64.183333333, "lat": -31.416666666, "pop": 1329604}, "Q1345": {"degree": 3, "label": "Philadelphia", "lon": -75.163611111, "lat": 39.952777777, "pop": 1580863}, "Q1538": {"degree": 4, "label": "Pune", "lon": 73.855287, "lat": 18.519574, "pop": 5945000}, "Q23438": {"degree": 4, "label": "Ashgabat", "lon": 58.383333333, "lat": 37.95, "pop": 1031992}, "Q3674": {"degree": 1, "label": "Niamey", "lon": 2.111111111, "lat": 13.508611111, "pop": 1026848}, "Q8972": {"degree": 1, "label": "San Crist\u00f3bal Ecatepec", "lon": -99.049158611, "lat": 19.599069444, "pop": 1655015}, "Q11943": {"degree": 1, "label": "Canton of Z\u00fcrich", "lon": 8.656388888, "lat": 47.413055611, "pop": 1520968}, "Q15282": {"degree": 1, "label": "Nuevo Le\u00f3n", "lon": -99.970555555, "lat": 25.566666666, "pop": 5189970}, "Q20934": {"degree": 4, "label": "Incheon", "lon": 126.648611111, "lat": 37.463888888, "pop": 2913024}, "Q194165": {"degree": 3, "label": "Irbid", "lon": 35.85, "lat": 32.555555555, "pop": 1088100}, "Q30340": {"degree": 1, "label": "Zhengzhou", "lon": 113.66051, "lat": 34.74919, "pop": 7005000}, "Q42800": {"degree": 1, "label": "Belo Horizonte", "lon": -43.941944444, "lat": -19.928055555, "pop": 2513451}, "Q44759": {"degree": 1, "label": "C\u00f3rdoba Province", "lon": -64.0, "lat": -32.0, "pop": 3567654}, "Q61445": {"degree": 2, "label": "Navi Mumbai", "lon": 73.01, "lat": 19.03, "pop": 1119477}, "Q72818": {"degree": 5, "label": "Haiphong", "lon": 106.666666666, "lat": 20.8, "pop": 2103500}, "Q132410": {"degree": 2, "label": "Mpumalanga", "lon": 30.0, "lat": -26.0, "pop": 4039939}, "Q132936": {"degree": 2, "label": "Okayama Prefecture", "lon": 133.934722222, "lat": 34.66175, "pop": 1878884}, "Q171334": {"degree": 1, "label": "Zaporizhzhia Oblast", "lon": 35.166666666, "lat": 47.833333333, "pop": 1723171}, "Q183584": {"degree": 2, "label": "Lanzhou", "lon": 103.83177, "lat": 36.06171, "pop": 3616163}, "Q6397066": {"degree": 1, "label": "Shiraz", "lon": 52.5425, "lat": 29.61, "pop": 1565572}, "Q173985": {"degree": 2, "label": "Faisalabad", "lon": 73.079, "lat": 31.418, "pop": 3203846}, "Q80053": {"degree": 1, "label": "Tabriz", "lon": 46.283333333, "lat": 38.083333333, "pop": 1558693}, "Q170573": {"degree": 1, "label": "Qom", "lon": 50.876388888, "lat": 34.64, "pop": 1201158}, "Q83317": {"degree": 1, "label": "Mosul", "lon": 43.116666666, "lat": 36.366666666, "pop": 1694000}, "Q376749": {"degree": 1, "label": "Chattogram", "lon": 91.8325, "lat": 22.335, "pop": 2581643}, "Q75230": {"degree": 1, "label": "Panjin", "lon": 122.06339, "lat": 41.11983, "pop": 1392493}, "Q125293": {"degree": 1, "label": "Puebla City", "lon": -98.217777777, "lat": 19.051388888, "pop": 1434062}, "Q115256": {"degree": 1, "label": "Taoyuan City", "lon": 121.216666666, "lat": 24.85, "pop": 2220872}, "Q107146": {"degree": 1, "label": "Alameda County", "lon": -121.91, "lat": 37.65, "pop": 1671329}, "Q119219": {"degree": 1, "label": "Pimpri-Chinchwad", "lon": 73.813055555, "lat": 18.627777777, "pop": 1729320}, "Q189128": {"degree": 4, "label": "Le\u00f3n de Los Aldama", "lon": -101.683333333, "lat": 21.121944444, "pop": 1579803}, "Q816": {"degree": 1, "label": "Arizona", "lon": -111.656944, "lat": 34.286667, "pop": 6828065}, "Q41358": {"degree": 1, "label": "Styria", "lon": 15.166666666, "lat": 47.25, "pop": 1246395}, "Q71699": {"degree": 1, "label": "Aomori Prefecture", "lon": 140.740555555, "lat": 40.824722222, "pop": 1225034}, "Q131358": {"degree": 1, "label": "Shiga Prefecture", "lon": 135.8685, "lat": 35.004361111, "pop": 1411168}, "Q1856565": {"degree": 4, "label": "Nelson Mandela Bay Metropolitan Municipality", "lon": 25.6, "lat": -33.95, "pop": 1152115}, "Q171617": {"degree": 1, "label": "Campinas", "lon": -47.057294444, "lat": -22.900913888, "pop": 1164098}, "Q1113311": {"degree": 1, "label": "Peshawar", "lon": 71.5, "lat": 34.0, "pop": 1970042}, "Q16959": {"degree": 1, "label": "\u00dcr\u00fcmqi", "lon": 87.6125, "lat": 43.8225, "pop": 3112559}, "Q182009": {"degree": 1, "label": "Tekirda\u011f", "lon": 27.516666666, "lat": 40.983333333, "pop": 1029927}, "Q59100": {"degree": 1, "label": "Shantou", "lon": 116.694111, "lat": 23.373472, "pop": 5319028}, "Q188693": {"degree": 2, "label": "Blantyre", "lon": 35.005833333, "lat": -15.786111111, "pop": 1895973}, "Q1094207": {"degree": 4, "label": "City of Tshwane Metropolitan Municipality", "lon": 28.333333333, "lat": -25.666666666, "pop": 2921488}, "Q42622": {"degree": 1, "label": "Suzhou", "lon": 120.61642, "lat": 31.30401, "pop": 10465994}, "Q185518": {"degree": 1, "label": "Mandalay", "lon": 96.084444444, "lat": 21.983055555, "pop": 1225546}}, "sisters": [["Q10393", "Q15174"], ["Q34647", "Q3624"], ["Q406", "Q612"], ["Q1486", "Q64"], ["Q1850", "Q84"], ["Q16555", "Q16666"], ["Q1533", "Q8972"], ["Q1741", "Q2844"], ["Q2844", "Q9022"], ["Q1362", "Q3805"], ["Q11736", "Q16557"], ["Q1486", "Q1489"], ["Q613", "Q93338"], ["Q174", "Q490"], ["Q41278", "Q92161"], ["Q1458", "Q1486"], ["Q3859", "Q3894"], ["Q34820", "Q956"], ["Q41283", "Q46747"], ["Q1563", "Q956"], ["Q3630", "Q8684"], ["Q2449", "Q35493"], ["Q1867", "Q8673"], ["Q8673", "Q8678"], ["Q3889", "Q8673"], ["Q1070", "Q8678"], ["Q12543", "Q16666"], ["Q1520", "Q956"], ["Q1963", "Q406"], ["Q3579", "Q612"], ["Q174", "Q2868"], ["Q1489", "Q52535"], ["Q3766", "Q406"], ["Q182009", "Q59100"], ["Q1874", "Q42780"], ["Q20934", "Q72818"], ["Q34820", "Q52535"], ["Q168652", "Q1963"], ["Q11025", "Q34932"], ["Q131358", "Q140631"], ["Q406", "Q8673"], ["Q1352", "Q914"], ["Q15340", "Q612"], ["Q220", "Q2844"], ["Q3561", "Q84"], ["Q11739", "Q80985"], ["Q1491", "Q174"], ["Q1491", "Q2841"], ["Q1055", "Q1960"], ["Q1361", "Q48278"], ["Q23438", "Q3640"], ["Q181557", "Q62823"], ["Q174", "Q35765"], ["Q3616", "Q8684"], ["Q1491", "Q2900"], ["Q1486", "Q490"], ["Q1352", "Q1865"], ["Q1489", "Q81033"], ["Q1492", "Q42635"], ["Q1563", "Q174"], ["Q1335", "Q2844"], ["Q2471", "Q79857"], ["Q60", "Q8686"], ["Q3561", "Q649"], ["Q23430", "Q8684"], ["Q16666", "Q199440"], ["Q34664", "Q914"], ["Q1486", "Q62823"], ["Q1297", "Q3761"], ["Q1352", "Q41278"], ["Q3130", "Q490"], ["Q16520", "Q1854"], ["Q3561", "Q85"], ["Q1491", "Q60"], ["Q1362", "Q1519"], ["Q6487", "Q900"], ["Q1489", "Q3711"], ["Q174", "Q3805"], ["Q85", "Q8673"], ["Q1492", "Q612"], ["Q34647", "Q84"], ["Q220", "Q956"], ["Q1348", "Q1354"], ["Q1490", "Q3630"], ["Q1297", "Q174"], ["Q11725", "Q1850"], ["Q26600", "Q8673"], ["Q34820", "Q64"], ["Q1489", "Q171632"], ["Q35997", "Q485496"], ["Q1530", "Q3805"], ["Q34600", "Q365"], ["Q34820", "Q60"], ["Q3640", "Q994"], ["Q1491", "Q74881"], ["Q140631", "Q816"], ["Q11736", "Q1345"], ["Q406", "Q84"], ["Q81033", "Q975"], ["Q1489", "Q1533"], ["Q3630", "Q956"], ["Q38283", "Q8686"], ["Q11725", "Q44759"], ["Q612", "Q65"], ["Q1963", "Q656"], ["Q1297", "Q3711"], ["Q1899", "Q3711"], ["Q19660", "Q956"], ["Q612", "Q8660"], ["Q3640", "Q3766"], ["Q174", "Q1953"], ["Q1362", "Q956"], ["Q1741", "Q3711"], ["Q1297", "Q8686"], ["Q1861", "Q656"], ["Q1335", "Q52535"], ["Q11725", "Q1781"], ["Q2844", "Q394701"], ["Q159273", "Q174"], ["Q52535", "Q8686"], ["Q1156", "Q3630"], ["Q1963", "Q612"], ["Q123258", "Q1858"], ["Q1461", "Q956"], ["Q170688", "Q468557"], ["Q656", "Q72818"], ["Q2887", "Q956"], ["Q3640", "Q3838"], ["Q1858", "Q270"], ["Q2900", "Q51103"], ["Q1781", "Q2807"], ["Q66568", "Q87"], ["Q20921", "Q36312"], ["Q34932", "Q48320"], ["Q3616", "Q956"], ["Q1461", "Q1854"], ["Q34820", "Q490"], ["Q174", "Q42780"], ["Q182852", "Q185518"], ["Q23430", "Q956"], ["Q1335", "Q174"], ["Q3586", "Q8686"], ["Q2471", "Q3805"], ["Q16520", "Q37100"], ["Q1345", "Q83317"], ["Q233588", "Q40738"], ["Q171632", "Q81033"], ["Q1353", "Q84"], ["Q1355", "Q30002"], ["Q11746", "Q1861"], ["Q3889", "Q3897"], ["Q16666", "Q20921"], ["Q406", "Q994"], ["Q1520", "Q270"], ["Q1355", "Q42308"], ["Q11736", "Q23430"], ["Q2256", "Q490"], ["Q11720", "Q37951"], ["Q3224", "Q3630"], ["Q124739", "Q75230"], ["Q30002", "Q48344"], ["Q90", "Q956"], ["Q1854", "Q8686"], ["Q84", "Q8686"], ["Q1861", "Q8684"], ["Q3630", "Q60"], ["Q11739", "Q406"], ["Q1055", "Q8686"], ["Q3805", "Q3826"], ["Q124739", "Q199440"], ["Q1486", "Q1899"], ["Q159273", "Q9022"], ["Q13917", "Q1858"], ["Q119219", "Q132936"], ["Q11736", "Q18808"], ["Q649", "Q85"], ["Q1335", "Q1489"], ["Q181557", "Q8678"], ["Q140631", "Q16553"], ["Q79857", "Q9248"], ["Q172", "Q914"], ["Q16572", "Q612"], ["Q1533", "Q8678"], ["Q3805", "Q472"], ["Q1335", "Q1533"], ["Q656", "Q956"], ["Q1533", "Q34820"], ["Q1867", "Q3274"], ["Q3805", "Q956"], ["Q1461", "Q8686"], ["Q1085", "Q34600"], ["Q1486", "Q8678"], ["Q1362", "Q3640"], ["Q16572", "Q3130"], ["Q36947", "Q65"], ["Q1486", "Q34820"], ["Q270", "Q649"], ["Q1486", "Q48278"], ["Q1520", "Q3805"], ["Q11725", "Q171334"], ["Q233588", "Q8686"], ["Q64", "Q956"], ["Q490", "Q8686"], ["Q1335", "Q4361"], ["Q60", "Q612"], ["Q1953", "Q65"], ["Q35765", "Q656"], ["Q2807", "Q472"], ["Q171632", "Q9022"], ["Q2841", "Q3579"], ["Q16557", "Q16666"], ["Q1781", "Q3766"], ["Q2807", "Q956"], ["Q1861", "Q34932"], ["Q34600", "Q5826"], ["Q11725", "Q3426"], ["Q172", "Q1899"], ["Q194165", "Q93338"], ["Q1874", "Q87"], ["Q1533", "Q52535"], ["Q2807", "Q3688"], ["Q30002", "Q5972"], ["Q123258", "Q1861"], ["Q1492", "Q48320"], ["Q269", "Q64"], ["Q1489", "Q2887"], ["Q1867", "Q3718"], ["Q1489", "Q172"], ["Q37951", "Q883"], ["Q35765", "Q612"], ["Q3640", "Q3805"], ["Q340", "Q34664"], ["Q1533", "Q3561"], ["Q23430", "Q38545"], ["Q11751", "Q1489"], ["Q5112", "Q8678"], ["Q1861", "Q1867"], ["Q11725", "Q44210"], ["Q1867", "Q20927"], ["Q7473516", "Q85"], ["Q1489", "Q3130"], ["Q1858", "Q3630"], ["Q16572", "Q1861"], ["Q1854", "Q887"], ["Q35493", "Q374365"], ["Q1861", "Q26600"], ["Q174", "Q8686"], ["Q1867", "Q3748"], ["Q1861", "Q956"], ["Q1555", "Q2807"], ["Q3640", "Q8684"], ["Q1489", "Q1899"], ["Q2841", "Q3238"], ["Q107146", "Q115256"], ["Q9022", "Q975"], ["Q34647", "Q656"], ["Q1555", "Q1867"], ["Q656", "Q8686"], ["Q171632", "Q42053"], ["Q463", "Q8686"], ["Q1297", "Q172"], ["Q3616", "Q65"], ["Q1491", "Q8678"], ["Q1861", "Q3616"], ["Q2471", "Q3616"], ["Q30002", "Q3183"], ["Q1491", "Q34820"], ["Q1953", "Q3805"], ["Q1486", "Q649"], ["Q2807", "Q2900"], ["Q34932", "Q612"], ["Q1489", "Q3630"], ["Q174", "Q3897"], ["Q270", "Q406"], ["Q189823", "Q37995"], ["Q1533", "Q2280"], ["Q1492", "Q891"], ["Q2256", "Q34647"], ["Q1899", "Q3579"], ["Q16520", "Q169376"], ["Q1486", "Q85"], ["Q3881", "Q65"], ["Q15174", "Q16555"], ["Q34820", "Q8678"], ["Q1520", "Q3630"], ["Q3274", "Q340"], ["Q1563", "Q34820"], ["Q2807", "Q64"], ["Q2807", "Q60"], ["Q19660", "Q3805"], ["Q656", "Q9022"], ["Q1781", "Q270"], ["Q1492", "Q365"], ["Q269", "Q8660"], ["Q1520", "Q1861"], ["Q189823", "Q6487"], ["Q3718", "Q3844"], ["Q140631", "Q171632"], ["Q1492", "Q1563"], ["Q3630", "Q374365"], ["Q60", "Q84"], ["Q485496", "Q532981"], ["Q15174", "Q34932"], ["Q40738", "Q472"], ["Q1899", "Q3630"], ["Q11725", "Q20934"], ["Q612", "Q81033"], ["Q11725", "Q6397066"], ["Q11746", "Q1963"], ["Q11736", "Q20934"], ["Q220", "Q34647"], ["Q11736", "Q72818"], ["Q1475", "Q1867"], ["Q1781", "Q35765"], ["Q3805", "Q490"], ["Q374365", "Q376749"], ["Q374365", "Q38545"], ["Q48195", "Q612"], ["Q3805", "Q3861"], ["Q1156", "Q1461"], ["Q1850", "Q956"], ["Q2280", "Q92161"], ["Q16520", "Q8678"], ["Q16556", "Q30002"], ["Q1489", "Q84"], ["Q1486", "Q1492"], ["Q1085", "Q51103"], ["Q8684", "Q90"], ["Q1362", "Q172"], ["Q36074", "Q8686"], ["Q16520", "Q1861"], ["Q64", "Q65"], ["Q1492", "Q16520"], ["Q1094207", "Q182059"], ["Q60", "Q85"], ["Q3640", "Q956"], ["Q11725", "Q34932"], ["Q11725", "Q15282"], ["Q170322", "Q37100"], ["Q1486", "Q406"], ["Q16520", "Q26600"], ["Q11739", "Q121157"], ["Q1492", "Q656"], ["Q35493", "Q52535"], ["Q81725", "Q8686"], ["Q3561", "Q472"], ["Q1492", "Q1761"], ["Q124739", "Q189128"], ["Q176", "Q8686"], ["Q2807", "Q2868"], ["Q1156", "Q656"], ["Q656", "Q87"], ["Q3561", "Q956"], ["Q3861", "Q994"], ["Q270", "Q656"], ["Q1726", "Q1899"], ["Q1492", "Q340"], ["Q1489", "Q85"], ["Q1858", "Q3640"], ["Q3703", "Q3718"], ["Q34932", "Q47916"], ["Q11736", "Q1861"], ["Q42308", "Q93338"], ["Q11025", "Q25282"], ["Q8678", "Q8684"], ["Q1362", "Q3630"], ["Q612", "Q90"], ["Q1335", "Q34820"], ["Q1491", "Q1533"], ["Q172", "Q3766"], ["Q172", "Q9361"], ["Q34600", "Q9022"], ["Q1489", "Q1555"], ["Q40738", "Q74957"], ["Q11462", "Q81033"], ["Q16556", "Q1867"], ["Q26586", "Q8686"], ["Q172", "Q406"], ["Q1461", "Q3630"], ["Q34600", "Q90"], ["Q1361", "Q1867"], ["Q1353", "Q8684"], ["Q1761", "Q956"], ["Q1085", "Q2807"], ["Q35178", "Q52535"], ["Q147402", "Q6487"], ["Q35178", "Q3616"], ["Q2887", "Q34820"], ["Q340", "Q51103"], ["Q30002", "Q914"], ["Q140631", "Q41358"], ["Q174", "Q2887"], ["Q1085", "Q1867"], ["Q3561", "Q3572"], ["Q1461", "Q1861"], ["Q1533", "Q61445"], ["Q16520", "Q7903"], ["Q122723", "Q1854"], ["Q43509", "Q8686"], ["Q124739", "Q16552"], ["Q34820", "Q4361"], ["Q1530", "Q612"], ["Q2844", "Q2887"], ["Q374365", "Q3805"], ["Q16520", "Q8686"], ["Q16555", "Q1867"], ["Q1489", "Q406"], ["Q34647", "Q3761"], ["Q3561", "Q64"], ["Q1486", "Q656"], ["Q270", "Q42308"], ["Q3561", "Q60"], ["Q1963", "Q3805"], ["Q1490", "Q84"], ["Q8673", "Q994"], ["Q1899", "Q994"], ["Q3766", "Q3805"], ["Q41183", "Q93338"], ["Q11725", "Q132410"], ["Q125293", "Q80985"], ["Q2868", "Q956"], ["Q37100", "Q65"], ["Q16520", "Q613"], ["Q649", "Q84"], ["Q1533", "Q612"], ["Q1486", "Q40269"], ["Q1861", "Q43407"], ["Q3630", "Q649"], ["Q1854", "Q649"], ["Q174", "Q468557"], ["Q1486", "Q2887"], ["Q1458", "Q3805"], ["Q472", "Q84"], ["Q1781", "Q956"], ["Q1874", "Q994"], ["Q1953", "Q8686"], ["Q373023", "Q3844"], ["Q169376", "Q8686"], ["Q1489", "Q174461"], ["Q3630", "Q7903"], ["Q2807", "Q3579"], ["Q20921", "Q37951"], ["Q8678", "Q956"], ["Q1489", "Q1563"], ["Q1899", "Q34600"], ["Q1408", "Q34820"], ["Q140631", "Q71699"], ["Q181557", "Q188693"], ["Q84", "Q9248"], ["Q1489", "Q26590"], ["Q1156", "Q84"], ["Q1726", "Q3921"], ["Q122723", "Q8686"], ["Q30002", "Q80985"], ["Q20934", "Q48320"], ["Q48278", "Q51103"], ["Q16520", "Q406"], ["Q23438", "Q3703"], ["Q34647", "Q60"], ["Q1519", "Q16555"], ["Q43509", "Q62823"], ["Q270", "Q2807"], ["Q11736", "Q1515"], ["Q35765", "Q490"], ["Q11725", "Q36947"], ["Q1353", "Q956"], ["Q2280", "Q46747"], ["Q51103", "Q81033"], ["Q1867", "Q23430"], ["Q2807", "Q8678"], ["Q34932", "Q37100"], ["Q1520", "Q1858"], ["Q1963", "Q2844"], ["Q2900", "Q34820"], ["Q2807", "Q34820"], ["Q270", "Q472"], ["Q1335", "Q1486"], ["Q2841", "Q612"], ["Q140631", "Q46747"], ["Q3838", "Q3844"], ["Q1761", "Q9022"], ["Q2807", "Q3238"], ["Q269", "Q3572"], ["Q1335", "Q1492"], ["Q1492", "Q1854"], ["Q1492", "Q52535"], ["Q85", "Q994"], ["Q2280", "Q956"], ["Q140631", "Q41283"], ["Q124739", "Q1563"], ["Q51103", "Q60"], ["Q5826", "Q85"], ["Q649", "Q994"], ["Q11751", "Q1538"], ["Q185453", "Q79857"], ["Q1519", "Q2807"], ["Q1156", "Q35997"], ["Q124739", "Q26590"], ["Q79857", "Q80053"], ["Q1491", "Q2887"], ["Q3630", "Q406"], ["Q124739", "Q92161"], ["Q472", "Q994"], ["Q1726", "Q37951"], ["Q1861", "Q3630"], ["Q1861", "Q80434"], ["Q1781", "Q60"], ["Q3718", "Q3838"], ["Q8684", "Q956"], ["Q1761", "Q490"], ["Q1490", "Q3766"], ["Q18808", "Q3630"], ["Q269", "Q8686"], ["Q1858", "Q1899"], ["Q38545", "Q485496"], ["Q124739", "Q65"], ["Q1492", "Q174"], ["Q11736", "Q42308"], ["Q612", "Q8678"], ["Q1867", "Q65"], ["Q51103", "Q9022"], ["Q1486", "Q84"], ["Q234200", "Q8686"], ["Q171632", "Q43509"], ["Q35178", "Q42053"], ["Q3224", "Q956"], ["Q124739", "Q16520"], ["Q233588", "Q37951"], ["Q245023", "Q274584"], ["Q1530", "Q85"], ["Q1486", "Q2807"], ["Q3561", "Q3805"], ["Q1865", "Q3630"], ["Q1867", "Q270"], ["Q1963", "Q3616"], ["Q37951", "Q38545"], ["Q1538", "Q16553"], ["Q65", "Q84"], ["Q1555", "Q34820"], ["Q11725", "Q11943"], ["Q1353", "Q23430"], ["Q1858", "Q1861"], ["Q2887", "Q43509"], ["Q16552", "Q189128"], ["Q3711", "Q956"], ["Q1555", "Q3238"], ["Q3238", "Q9022"], ["Q65", "Q81788"], ["Q3718", "Q490"], ["Q48320", "Q8678"], ["Q1530", "Q2471"], ["Q26600", "Q37100"], ["Q1489", "Q8684"], ["Q1156", "Q64"], ["Q16520", "Q588451"], ["Q34820", "Q40236"], ["Q85", "Q90"], ["Q270", "Q64"], ["Q48278", "Q52535"], ["Q6487", "Q908"], ["Q54180", "Q8686"], ["Q18808", "Q3561"], ["Q34820", "Q468557"], ["Q16520", "Q612"], ["Q84", "Q8660"], ["Q174", "Q3766"], ["Q2841", "Q84"], ["Q1489", "Q16555"], ["Q3561", "Q3579"], ["Q1355", "Q2280"], ["Q66485", "Q8673"], ["Q140631", "Q170688"], ["Q1861", "Q649"], ["Q42053", "Q85"], ["Q472", "Q490"], ["Q1297", "Q6487"], ["Q1530", "Q3766"], ["Q11725", "Q172"], ["Q40269", "Q52535"], ["Q182852", "Q6487"], ["Q170573", "Q79857"], ["Q48278", "Q81033"], ["Q1867", "Q374365"], ["Q1491", "Q84"], ["Q304848", "Q36312"], ["Q11739", "Q30002"], ["Q2844", "Q64"], ["Q11739", "Q1297"], ["Q183584", "Q3688"], ["Q3861", "Q956"], ["Q1486", "Q2841"], ["Q340", "Q490"], ["Q11725", "Q3624"], ["Q1055", "Q35765"], ["Q1489", "Q159273"], ["Q1867", "Q8684"], ["Q340", "Q65"], ["Q1861", "Q8686"], ["Q122723", "Q612"], ["Q189128", "Q42622"], ["Q1963", "Q3640"], ["Q34820", "Q84"], ["Q1156", "Q65"], ["Q1489", "Q2807"], ["Q3766", "Q613"], ["Q1515", "Q182059"], ["Q11739", "Q5826"], ["Q1850", "Q1854"], ["Q612", "Q8686"], ["Q1486", "Q3766"], ["Q170688", "Q245023"], ["Q1491", "Q649"], ["Q1861", "Q3640"], ["Q16557", "Q1867"], ["Q1899", "Q2844"], ["Q1362", "Q3130"], ["Q18808", "Q334"], ["Q1156", "Q16520"], ["Q2471", "Q3640"], ["Q1867", "Q34647"], ["Q1354", "Q16572"], ["Q13917", "Q956"], ["Q1490", "Q3805"], ["Q1533", "Q3274"], ["Q3238", "Q3805"], ["Q1492", "Q42053"], ["Q2807", "Q3274"], ["Q1489", "Q956"], ["Q1397", "Q1486"], ["Q20927", "Q34664"], ["Q20921", "Q34932"], ["Q11751", "Q16666"], ["Q19660", "Q8673"], ["Q1335", "Q41278"], ["Q1461", "Q3130"], ["Q172", "Q174"], ["Q3572", "Q3805"], ["Q3616", "Q612"], ["Q171632", "Q51103"], ["Q11725", "Q1861"], ["Q172", "Q2900"], ["Q2844", "Q3861"], ["Q10389", "Q20714"], ["Q365", "Q956"], ["Q1490", "Q8684"], ["Q4361", "Q44210"], ["Q85", "Q8684"], ["Q3889", "Q8678"], ["Q1461", "Q51103"], ["Q2844", "Q2868"], ["Q340", "Q3805"], ["Q1867", "Q34820"], ["Q1486", "Q1491"], ["Q649", "Q8684"], ["Q3141", "Q490"], ["Q30002", "Q656"], ["Q3274", "Q8678"], ["Q1899", "Q956"], ["Q48278", "Q490"], ["Q11751", "Q3130"], ["Q270", "Q42956"], ["Q159273", "Q84"], ["Q1867", "Q3238"], ["Q3274", "Q34820"], ["Q374365", "Q87"], ["Q1850", "Q8686"], ["Q269", "Q3579"], ["Q1489", "Q174"], ["Q174", "Q3703"], ["Q3688", "Q3703"], ["Q1489", "Q2841"], ["Q147402", "Q30002"], ["Q34647", "Q956"], ["Q16572", "Q37100"], ["Q46747", "Q92161"], ["Q1520", "Q994"], ["Q16557", "Q81033"], ["Q5112", "Q74881"], ["Q51103", "Q8678"], ["Q1486", "Q2868"], ["Q3561", "Q7903"], ["Q11720", "Q1854"], ["Q225641", "Q68481"], ["Q2868", "Q34820"], ["Q30002", "Q3889"], ["Q2844", "Q3787"], ["Q3630", "Q84"], ["Q3688", "Q3805"], ["Q1118", "Q30002"], ["Q270", "Q8684"], ["Q1486", "Q270"], ["Q42956", "Q919"], ["Q1085", "Q956"], ["Q16666", "Q62823"], ["Q19660", "Q84"], ["Q2868", "Q3238"], ["Q35765", "Q8686"], ["Q2844", "Q3889"], ["Q1489", "Q64"], ["Q1335", "Q2807"], ["Q1854", "Q1867"], ["Q1489", "Q60"], ["Q185453", "Q40738"], ["Q1156", "Q38283"], ["Q38545", "Q656"], ["Q1781", "Q1861"], ["Q35178", "Q3572"], ["Q16572", "Q2256"], ["Q1345", "Q48320"], ["Q52535", "Q81033"], ["Q1861", "Q59227"], ["Q65", "Q656"], ["Q16572", "Q65"], ["Q174", "Q8684"], ["Q172", "Q490"], ["Q1899", "Q269"], ["Q1489", "Q35178"], ["Q1486", "Q35765"], ["Q2807", "Q2887"], ["Q84", "Q956"], ["Q11720", "Q81033"], ["Q16552", "Q245023"], ["Q1461", "Q2807"], ["Q1491", "Q1563"], ["Q1352", "Q975"], ["Q11736", "Q35997"], ["Q3718", "Q52535"], ["Q1461", "Q1867"], ["Q3616", "Q84"], ["Q171617", "Q171632"], ["Q35493", "Q9361"], ["Q1515", "Q174"], ["Q374365", "Q612"], ["Q16552", "Q270"], ["Q35765", "Q9022"], ["Q1489", "Q9022"], ["Q1490", "Q956"], ["Q35493", "Q406"], ["Q172", "Q270"], ["Q612", "Q8646"], ["Q85", "Q956"], ["Q919", "Q92161"], ["Q1489", "Q1491"], ["Q1297", "Q1489"], ["Q1492", "Q8678"], ["Q649", "Q956"], ["Q1492", "Q34820"], ["Q1953", "Q994"], ["Q11725", "Q34664"], ["Q3766", "Q612"], ["Q11736", "Q48320"], ["Q1492", "Q48278"], ["Q1533", "Q51103"], ["Q406", "Q85"], ["Q270", "Q8678"], ["Q35178", "Q3640"], ["Q3889", "Q8686"], ["Q1492", "Q80985"], ["Q2844", "Q5826"], ["Q1963", "Q3624"], ["Q1489", "Q3861"], ["Q1489", "Q65"], ["Q1867", "Q3777"], ["Q490", "Q956"], ["Q1486", "Q8684"], ["Q18808", "Q612"], ["Q133083", "Q956"], ["Q406", "Q8686"], ["Q121157", "Q490"], ["Q23430", "Q919"], ["Q16556", "Q36312"], ["Q1055", "Q174"], ["Q1489", "Q2868"], ["Q1085", "Q8686"], ["Q1953", "Q3766"], ["Q16520", "Q181557"], ["Q19660", "Q994"], ["Q13917", "Q270"], ["Q1858", "Q340"], ["Q11725", "Q1352"], ["Q269", "Q48256"], ["Q11725", "Q233588"], ["Q7903", "Q85"], ["Q1486", "Q1953"], ["Q16555", "Q85"], ["Q1490", "Q174"], ["Q3130", "Q8684"], ["Q1850", "Q1858"], ["Q1519", "Q34932"], ["Q2256", "Q92161"], ["Q8660", "Q8686"], ["Q1726", "Q81033"], ["Q1519", "Q3630"], ["Q1865", "Q612"], ["Q340", "Q3561"], ["Q1492", "Q3561"], ["Q1297", "Q2256"], ["Q1297", "Q490"], ["Q170688", "Q52535"], ["Q3674", "Q3718"], ["Q7903", "Q8686"], ["Q19660", "Q3766"], ["Q3630", "Q64"], ["Q1486", "Q5783"], ["Q1085", "Q1486"], ["Q181557", "Q34932"], ["Q1781", "Q8686"], ["Q3579", "Q42800"], ["Q1486", "Q2844"], ["Q3616", "Q994"], ["Q3579", "Q613"], ["Q3572", "Q3711"], ["Q174", "Q956"], ["Q1899", "Q2868"], ["Q64", "Q84"], ["Q16553", "Q9022"], ["Q41161", "Q8686"], ["Q3561", "Q3718"], ["Q490", "Q5972"], ["Q374365", "Q485496"], ["Q1297", "Q16520"], ["Q1297", "Q270"], ["Q20927", "Q30002"], ["Q16520", "Q65"], ["Q1490", "Q60"], ["Q2841", "Q8684"], ["Q11462", "Q16520"], ["Q1899", "Q270"], ["Q8686", "Q87"], ["Q13160", "Q8686"], ["Q16555", "Q3897"], ["Q1533", "Q2807"], ["Q1741", "Q270"], ["Q1858", "Q8684"], ["Q3805", "Q649"], ["Q1055", "Q37100"], ["Q35493", "Q656"], ["Q60", "Q8684"], ["Q30002", "Q35997"], ["Q147402", "Q243327"], ["Q1461", "Q1489"], ["Q1492", "Q85"], ["Q3805", "Q85"], ["Q1874", "Q270"], ["Q35178", "Q93338"], ["Q6487", "Q898"], ["Q11739", "Q42053"], ["Q2844", "Q3616"], ["Q181557", "Q975"], ["Q1297", "Q35765"], ["Q16520", "Q656"], ["Q174", "Q1781"], ["Q1335", "Q1491"], ["Q340", "Q8686"], ["Q1854", "Q463"], ["Q3616", "Q3838"], ["Q1492", "Q8686"], ["Q2280", "Q85"], ["Q2807", "Q649"], ["Q3805", "Q9248"], ["Q245023", "Q37100"], ["Q37100", "Q42780"], ["Q1899", "Q23438"], ["Q16520", "Q340"], ["Q2841", "Q2844"], ["Q1486", "Q956"], ["Q1533", "Q3616"], ["Q3630", "Q65"], ["Q1297", "Q3805"], ["Q1520", "Q8684"], ["Q269", "Q406"], ["Q16555", "Q43509"], ["Q36312", "Q66485"], ["Q173985", "Q48320"], ["Q147402", "Q9022"], ["Q374365", "Q85"], ["Q1355", "Q7903"], ["Q41157", "Q8686"], ["Q171632", "Q245023"], ["Q132936", "Q1538"], ["Q490", "Q9022"], ["Q194165", "Q30340"], ["Q171632", "Q62823"], ["Q43509", "Q51103"], ["Q2280", "Q994"], ["Q1963", "Q85"], ["Q1519", "Q2280"], ["Q5826", "Q79857"], ["Q1865", "Q84"], ["Q3766", "Q85"], ["Q16572", "Q26600"], ["Q1461", "Q65"], ["Q35493", "Q6487"], ["Q1491", "Q159273"], ["Q1335", "Q656"], ["Q18808", "Q649"], ["Q1461", "Q245023"], ["Q147402", "Q5112"], ["Q7903", "Q87"], ["Q1461", "Q2868"], ["Q1850", "Q1861"], ["Q3805", "Q9361"], ["Q2807", "Q2841"], ["Q140631", "Q1856565"], ["Q170688", "Q4361"], ["Q1486", "Q174"], ["Q1492", "Q406"], ["Q35178", "Q612"], ["Q3805", "Q406"], ["Q2844", "Q60"], ["Q1461", "Q16520"], ["Q1491", "Q2807"], ["Q3624", "Q956"], ["Q16572", "Q1854"], ["Q1491", "Q1867"], ["Q2256", "Q5826"], ["Q4361", "Q9022"], ["Q1858", "Q956"], ["Q1489", "Q8678"], ["Q1486", "Q2900"], ["Q172", "Q1854"], ["Q2807", "Q3766"], ["Q1489", "Q34820"], ["Q60", "Q956"], ["Q1486", "Q3711"], ["Q1530", "Q18808"], ["Q16556", "Q612"], ["Q16557", "Q46747"], ["Q1563", "Q2807"], ["Q11751", "Q65"], ["Q1142", "Q16666"], ["Q5756", "Q956"], ["Q1113311", "Q16959"], ["Q220", "Q8684"], ["Q1461", "Q35765"]]}